<?xml version='1.0' encoding='UTF-8'?>
<kml xmlns='http://www.opengis.net/kml/2.2'>
	<Document>
		<name>Baby related places in Brunei</name>
		<description><![CDATA[]]></description>
		<Folder>
			<name>Breastfeeding / Nappy change rooms</name>
			<Placemark>
				<name>Mabohai Shopping Complex - 1st floor</name>
				<description><![CDATA[- Clean Sink with running water<br>- Mothercare Changing Table with shelf<br>- Comfortable lounge sofa with back cushions<br>- Hand Sanitizer, Hand Wash and Paper Towels<br>- Brabantia pedal bin<br>- Nappy Sacks<br>- Toddler friendly books and games<br>- Comfy stool for accompanying toddler to sit on<br>- Airconditioning<br>- Hot water for formula preparation<br><br>Details: http://www.mabohai.com/mother-and-baby-care-room/]]></description>
				<styleUrl>#icon-1899-0288D1</styleUrl>
				<Point>
					<coordinates>114.9426515,4.9084183,0.0</coordinates>
				</Point>
			</Placemark>
			<Placemark>
				<name>Giant Hypermarket Tasik Rimba - Ground floor</name>
				<description><![CDATA[Near side entrance next to the cube shops]]></description>
				<styleUrl>#icon-1899-0288D1</styleUrl>
				<Point>
					<coordinates>114.9076769,4.9519833,0.0</coordinates>
				</Point>
			</Placemark>
			<Placemark>
				<name>The Mall - 1st &amp; 2nd floor</name>
				<description><![CDATA[New nursing room on 1st floor next to Surau. Diaper change area in disabled toilets on 1st & 2nd floor]]></description>
				<styleUrl>#icon-1899-0288D1</styleUrl>
				<Point>
					<coordinates>114.9166864,4.9058542,0.0</coordinates>
				</Point>
			</Placemark>
			<Placemark>
				<name>Hua Ho Mall Manggis - 2nd floor</name>
				<styleUrl>#icon-1899-0288D1-nodesc</styleUrl>
				<Point>
					<coordinates>114.960735,4.946702999999999,0.0</coordinates>
				</Point>
			</Placemark>
			<Placemark>
				<name>Supa Save, Kuala Belait - Ground floor</name>
				<description><![CDATA[Way at the back, behind Coffee Bean  & Tea Leaf]]></description>
				<styleUrl>#icon-1899-0288D1</styleUrl>
				<Point>
					<coordinates>114.2869091,4.6004019,0.0</coordinates>
				</Point>
			</Placemark>
			<Placemark>
				<name>Times Square Shopping Complex - Ground floor, next to the toilet</name>
				<description><![CDATA[Women only entry]]></description>
				<styleUrl>#icon-1899-0288D1</styleUrl>
				<Point>
					<coordinates>114.9400364,4.9396743,0.0</coordinates>
				</Point>
			</Placemark>
			<Placemark>
				<name>Mothercare, Kiulap</name>
				<styleUrl>#icon-1899-0288D1-nodesc</styleUrl>
				<Point>
					<coordinates>114.927831,4.9026166,0.0</coordinates>
				</Point>
			</Placemark>
			<Placemark>
				<name>Bebeland, Kiulap</name>
				<styleUrl>#icon-1899-0288D1-nodesc</styleUrl>
				<Point>
					<coordinates>114.9278659,4.9023694,0.0</coordinates>
				</Point>
			</Placemark>
			<Placemark>
				<name>Seri Qlap, Ground floor</name>
				<description><![CDATA[At both sides where the toilets are]]></description>
				<styleUrl>#icon-1899-0288D1</styleUrl>
				<Point>
					<coordinates>114.9261305,4.9036094,0.0</coordinates>
				</Point>
			</Placemark>
			<Placemark>
				<name>Airport Mall, Ground Floor</name>
				<styleUrl>#icon-1899-0288D1-nodesc</styleUrl>
				<Point>
					<coordinates>114.9403516,4.9404686,0.0</coordinates>
				</Point>
			</Placemark>
			<Placemark>
				<name>Citis Square, 1st floor</name>
				<styleUrl>#icon-1899-0288D1-nodesc</styleUrl>
				<Point>
					<coordinates>114.9393725,4.938876,0.0</coordinates>
				</Point>
			</Placemark>
		</Folder>
		<Folder>
			<name>Shops</name>
			<Placemark>
				<name>Chicco Brunei, Mabohai</name>
				<styleUrl>#icon-1899-FBC02D-nodesc</styleUrl>
				<Point>
					<coordinates>114.9429198,4.9085747,0.0</coordinates>
				</Point>
			</Placemark>
			<Placemark>
				<name>Mothercare, Kiulap</name>
				<styleUrl>#icon-1899-FBC02D-nodesc</styleUrl>
				<Point>
					<coordinates>114.927831,4.9026166,0.0</coordinates>
				</Point>
			</Placemark>
			<Placemark>
				<name>Mothercare, Manggis</name>
				<styleUrl>#icon-1899-FBC02D-nodesc</styleUrl>
				<Point>
					<coordinates>114.9609616,4.9471305,0.0</coordinates>
				</Point>
			</Placemark>
			<Placemark>
				<name>Bebeland, Manggis</name>
				<styleUrl>#icon-1899-FBC02D-nodesc</styleUrl>
				<Point>
					<coordinates>114.9606612,4.9470477,0.0</coordinates>
				</Point>
			</Placemark>
			<Placemark>
				<name>Bebeland, Kiulap</name>
				<description><![CDATA[http://www.bebeland.com.bn]]></description>
				<styleUrl>#icon-1899-FBC02D</styleUrl>
				<Point>
					<coordinates>114.9278659,4.9023694,0.0</coordinates>
				</Point>
			</Placemark>
			<Placemark>
				<name>Triple Star, Kiulap</name>
				<styleUrl>#icon-1899-FBC02D-nodesc</styleUrl>
				<Point>
					<coordinates>114.92550619999997,4.90123,0.0</coordinates>
				</Point>
			</Placemark>
			<Placemark>
				<name>Wrap in a Box</name>
				<styleUrl>#icon-1899-FBC02D-nodesc</styleUrl>
				<Point>
					<coordinates>114.9221796,4.9040396,0.0</coordinates>
				</Point>
			</Placemark>
			<Placemark>
				<name>Dot Dot's Little Shop</name>
				<description><![CDATA[http://www.dotdotslittleshop.com/]]></description>
				<styleUrl>#icon-1899-FBC02D</styleUrl>
				<Point>
					<coordinates>114.9196905,4.8964126,0.0</coordinates>
				</Point>
			</Placemark>
			<Placemark>
				<name>Mothercare, Kuala Belait</name>
				<styleUrl>#icon-1899-FBC02D-nodesc</styleUrl>
				<Point>
					<coordinates>114.22833333333335,4.589722222222222,0.0</coordinates>
				</Point>
			</Placemark>
		</Folder>
		<Style id='icon-1899-0288D1-normal'>
			<IconStyle>
				<color>ffD18802</color>
				<scale>1.0</scale>
				<Icon>
					<href>http://www.gstatic.com/mapspro/images/stock/503-wht-blank_maps.png</href>
				</Icon>
			</IconStyle>
			<LabelStyle>
				<scale>0.0</scale>
			</LabelStyle>
		</Style>
		<Style id='icon-1899-0288D1-highlight'>
			<IconStyle>
				<color>ffD18802</color>
				<scale>1.0</scale>
				<Icon>
					<href>http://www.gstatic.com/mapspro/images/stock/503-wht-blank_maps.png</href>
				</Icon>
			</IconStyle>
			<LabelStyle>
				<scale>1.0</scale>
			</LabelStyle>
		</Style>
		<StyleMap id='icon-1899-0288D1'>
			<Pair>
				<key>normal</key>
				<styleUrl>#icon-1899-0288D1-normal</styleUrl>
			</Pair>
			<Pair>
				<key>highlight</key>
				<styleUrl>#icon-1899-0288D1-highlight</styleUrl>
			</Pair>
		</StyleMap>
		<Style id='icon-1899-0288D1-nodesc-normal'>
			<IconStyle>
				<color>ffD18802</color>
				<scale>1.0</scale>
				<Icon>
					<href>http://www.gstatic.com/mapspro/images/stock/503-wht-blank_maps.png</href>
				</Icon>
			</IconStyle>
			<LabelStyle>
				<scale>0.0</scale>
			</LabelStyle>
			<BalloonStyle>
				<text><![CDATA[<h3>$[name]</h3>]]></text>
			</BalloonStyle>
		</Style>
		<Style id='icon-1899-0288D1-nodesc-highlight'>
			<IconStyle>
				<color>ffD18802</color>
				<scale>1.0</scale>
				<Icon>
					<href>http://www.gstatic.com/mapspro/images/stock/503-wht-blank_maps.png</href>
				</Icon>
			</IconStyle>
			<LabelStyle>
				<scale>1.0</scale>
			</LabelStyle>
			<BalloonStyle>
				<text><![CDATA[<h3>$[name]</h3>]]></text>
			</BalloonStyle>
		</Style>
		<StyleMap id='icon-1899-0288D1-nodesc'>
			<Pair>
				<key>normal</key>
				<styleUrl>#icon-1899-0288D1-nodesc-normal</styleUrl>
			</Pair>
			<Pair>
				<key>highlight</key>
				<styleUrl>#icon-1899-0288D1-nodesc-highlight</styleUrl>
			</Pair>
		</StyleMap>
		<Style id='icon-1899-FBC02D-normal'>
			<IconStyle>
				<color>ff2DC0FB</color>
				<scale>1.0</scale>
				<Icon>
					<href>http://www.gstatic.com/mapspro/images/stock/503-wht-blank_maps.png</href>
				</Icon>
			</IconStyle>
			<LabelStyle>
				<scale>0.0</scale>
			</LabelStyle>
		</Style>
		<Style id='icon-1899-FBC02D-highlight'>
			<IconStyle>
				<color>ff2DC0FB</color>
				<scale>1.0</scale>
				<Icon>
					<href>http://www.gstatic.com/mapspro/images/stock/503-wht-blank_maps.png</href>
				</Icon>
			</IconStyle>
			<LabelStyle>
				<scale>1.0</scale>
			</LabelStyle>
		</Style>
		<StyleMap id='icon-1899-FBC02D'>
			<Pair>
				<key>normal</key>
				<styleUrl>#icon-1899-FBC02D-normal</styleUrl>
			</Pair>
			<Pair>
				<key>highlight</key>
				<styleUrl>#icon-1899-FBC02D-highlight</styleUrl>
			</Pair>
		</StyleMap>
		<Style id='icon-1899-FBC02D-nodesc-normal'>
			<IconStyle>
				<color>ff2DC0FB</color>
				<scale>1.0</scale>
				<Icon>
					<href>http://www.gstatic.com/mapspro/images/stock/503-wht-blank_maps.png</href>
				</Icon>
			</IconStyle>
			<LabelStyle>
				<scale>0.0</scale>
			</LabelStyle>
			<BalloonStyle>
				<text><![CDATA[<h3>$[name]</h3>]]></text>
			</BalloonStyle>
		</Style>
		<Style id='icon-1899-FBC02D-nodesc-highlight'>
			<IconStyle>
				<color>ff2DC0FB</color>
				<scale>1.0</scale>
				<Icon>
					<href>http://www.gstatic.com/mapspro/images/stock/503-wht-blank_maps.png</href>
				</Icon>
			</IconStyle>
			<LabelStyle>
				<scale>1.0</scale>
			</LabelStyle>
			<BalloonStyle>
				<text><![CDATA[<h3>$[name]</h3>]]></text>
			</BalloonStyle>
		</Style>
		<StyleMap id='icon-1899-FBC02D-nodesc'>
			<Pair>
				<key>normal</key>
				<styleUrl>#icon-1899-FBC02D-nodesc-normal</styleUrl>
			</Pair>
			<Pair>
				<key>highlight</key>
				<styleUrl>#icon-1899-FBC02D-nodesc-highlight</styleUrl>
			</Pair>
		</StyleMap>
	</Document>
</kml>